{
  "город": {
    "название": "Минск",
    "страна": "Беларусь",
    "query_booking": "Минск, Беларусь",
    "query_trip": "Minsk",
    "cityid_trip": 854,
    "lat": 53.9024726,
    "lng": 27.5618244,
    "slug": "minsk",
    "slug_ostrovok": "minsk",
    "country_ostrovok": "belarus"
  },
  "даты": {
    "заезд": "2026-04-29",
    "выезд": "2026-05-01"
  },
  "гости": {
    "взрослых": 2,
    "номеров": 1
  },
  "ручные_координаты": {
    "doubletree":         { "lat": 53.9082,  "lng": 27.5483 },
    "renaissance":        { "lat": 53.89214, "lng": 27.52900 },
    "ренессанс":          { "lat": 53.89214, "lng": 27.52900 },
    "president hotel":    { "lat": 53.89932, "lng": 27.56583 },
    "президент":          { "lat": 53.89932, "lng": 27.56583 },
    "crowne plaza":       { "lat": 53.8951,  "lng": 27.5549 },
    "гостиница беларусь": { "lat": 53.9153,  "lng": 27.5504 },
    "hotel belarus":      { "lat": 53.9153,  "lng": 27.5504 },
    "гостиница минск":    { "lat": 53.8969,  "lng": 27.5508 },
    "hotel minsk":        { "lat": 53.8969,  "lng": 27.5508 },
    "yubileiny":          { "lat": 53.91124, "lng": 27.54661 },
    "юбилейн":            { "lat": 53.91124, "lng": 27.54661 },
    "tourist":            { "lat": 53.87591, "lng": 27.62789 },
    "турист":             { "lat": 53.87591, "lng": 27.62789 },
    "aqua-minsk":         { "lat": 53.86705, "lng": 27.59044 },
    "аква-минск":         { "lat": 53.86705, "lng": 27.59044 },
    "bonhotel":           { "lat": 53.91053, "lng": 27.50606 },
    "бонотель":           { "lat": 53.91053, "lng": 27.50606 },
    "orbita":             { "lat": 53.90806, "lng": 27.49392 },
    "орбита":             { "lat": 53.90806, "lng": 27.49392 },
    "imperial palace":    { "lat": 53.89872, "lng": 27.54528 },
    "империал палас":     { "lat": 53.89872, "lng": 27.54528 },
    "robinson club":      { "lat": 53.9508,  "lng": 27.3378 }
  },
  "метро": [
    { "название": "Малиновка",            "lat": 53.8497, "lng": 27.4747, "линия": 1 },
    { "название": "Петровщина",           "lat": 53.8647, "lng": 27.4861, "линия": 1 },
    { "название": "Михалово",             "lat": 53.8767, "lng": 27.4969, "линия": 1 },
    { "название": "Грушевка",             "lat": 53.8867, "lng": 27.5147, "линия": 1 },
    { "название": "Институт культуры",    "lat": 53.8852, "lng": 27.5399, "линия": 1 },
    { "название": "Площадь Ленина",       "lat": 53.8917, "lng": 27.5478, "линия": 1, "пересадка": true },
    { "название": "Октябрьская",          "lat": 53.9017, "lng": 27.5608, "линия": 1, "пересадка": true },
    { "название": "Площадь Победы",       "lat": 53.9094, "lng": 27.5761, "линия": 1 },
    { "название": "Площадь Якуба Коласа", "lat": 53.9160, "lng": 27.5839, "линия": 1 },
    { "название": "Академия наук",        "lat": 53.9214, "lng": 27.5969, "линия": 1 },
    { "название": "Парк Челюскинцев",     "lat": 53.9242, "lng": 27.6136, "линия": 1 },
    { "название": "Московская",           "lat": 53.9278, "lng": 27.6272, "линия": 1 },
    { "название": "Восток",               "lat": 53.9344, "lng": 27.6508, "линия": 1 },
    { "название": "Борисовский тракт",    "lat": 53.9392, "lng": 27.6672, "линия": 1 },
    { "название": "Уручье",               "lat": 53.9458, "lng": 27.6897, "линия": 1 },

    { "название": "Каменная Горка",       "lat": 53.9069, "lng": 27.4353, "линия": 2 },
    { "название": "Кунцевщина",           "lat": 53.9064, "lng": 27.4556, "линия": 2 },
    { "название": "Спортивная",           "lat": 53.9083, "lng": 27.4792, "линия": 2 },
    { "название": "Пушкинская",           "lat": 53.9094, "lng": 27.4953, "линия": 2 },
    { "название": "Молодёжная",           "lat": 53.9064, "lng": 27.5211, "линия": 2 },
    { "название": "Фрунзенская",          "lat": 53.9053, "lng": 27.5394, "линия": 2, "пересадка": true },
    { "название": "Немига",               "lat": 53.9058, "lng": 27.5539, "линия": 2 },
    { "название": "Купаловская",          "lat": 53.9017, "lng": 27.5610, "линия": 2, "пересадка": true },
    { "название": "Первомайская",         "lat": 53.8939, "lng": 27.5703, "линия": 2 },
    { "название": "Пролетарская",         "lat": 53.8897, "lng": 27.5864, "линия": 2 },
    { "название": "Тракторный завод",     "lat": 53.8897, "lng": 27.6150, "линия": 2 },
    { "название": "Партизанская",         "lat": 53.8744, "lng": 27.6300, "линия": 2 },
    { "название": "Автозаводская",        "lat": 53.8689, "lng": 27.6486, "линия": 2 },
    { "название": "Могилёвская",          "lat": 53.8619, "lng": 27.6742, "линия": 2 },

    { "название": "Юбилейная площадь",         "lat": 53.9047, "lng": 27.5404, "линия": 3, "пересадка": true },
    { "название": "Площадь Франтишка Богушевича", "lat": 53.8964, "lng": 27.5379, "линия": 3 },
    { "название": "Вокзальная",                 "lat": 53.8897, "lng": 27.5473, "линия": 3, "пересадка": true },
    { "название": "Ковальская Слобода",         "lat": 53.8770, "lng": 27.5495, "линия": 3 },
    { "название": "Аэродромная",                "lat": 53.8677, "lng": 27.5469, "линия": 3 },
    { "название": "Неморшанский сад",           "lat": 53.8501, "lng": 27.5367, "линия": 3 },
    { "название": "Слуцкий гостинец",           "lat": 53.8423, "lng": 27.5337, "линия": 3 }
  ],
  "достопримечательности": [
    {
      "название": "Площадь Независимости",
      "описание": "Главная площадь Минска. Здесь расположены правительственные здания, костёл Святого Симеона и Елены и фонтаны.",
      "lat": 53.9002, "lng": 27.5609, "тип": "🏛", "приоритет": 2,
      "фото": [
        "https://upload.wikimedia.org/wikipedia/commons/thumb/8/8c/Miensk_-_Plac_Niezale%C5%BEna%C5%9Bci.jpg/960px-Miensk_-_Plac_Niezale%C5%BEna%C5%9Bci.jpg"
      ]
    },
    {
      "название": "Площадь Победы",
      "описание": "Мемориальная площадь с обелиском Победы (38 м). Вечный огонь горит у подножия монумента.",
      "lat": 53.9134, "lng": 27.5657, "тип": "🏆", "приоритет": 2,
      "фото": [
        "https://upload.wikimedia.org/wikipedia/commons/thumb/9/9a/Victory-square.jpg/960px-Victory-square.jpg",
        "https://upload.wikimedia.org/wikipedia/commons/thumb/8/86/Victory_square_minsk.jpg/960px-Victory_square_minsk.jpg"
      ]
    },
    {
      "название": "Троицкое предместье",
      "описание": "Исторический квартал XIX века на берегу Свислочи. Реставрированные дома, кафе и галереи.",
      "lat": 53.9060, "lng": 27.5543, "тип": "🏘", "приоритет": 3,
      "фото": [
        "https://upload.wikimedia.org/wikipedia/commons/thumb/e/ea/Belarus-Minsk-Svislach_and_Traetskaye_Suburb-1.jpg/960px-Belarus-Minsk-Svislach_and_Traetskaye_Suburb-1.jpg",
        "https://upload.wikimedia.org/wikipedia/commons/thumb/1/17/Traeckaje_suburb-3.jpg/960px-Traeckaje_suburb-3.jpg",
        "https://upload.wikimedia.org/wikipedia/commons/thumb/f/f5/Belarus-Minsk-Maksim_Bahdanovich_Museum-2.jpg/960px-Belarus-Minsk-Maksim_Bahdanovich_Museum-2.jpg"
      ]
    },
    {
      "название": "Остров Слёз",
      "описание": "Мемориальный остров на реке Свислочь, посвящённый белорусским солдатам, погибшим в Афганистане.",
      "lat": 53.9093, "lng": 27.5518, "тип": "🕊", "приоритет": 2,
      "фото": [
        "https://upload.wikimedia.org/wikipedia/ru/thumb/2/24/Minsk.Ostrov_Slez.JPG/960px-Minsk.Ostrov_Slez.JPG",
        "https://upload.wikimedia.org/wikipedia/ru/thumb/2/23/Minsk.Ostrov_Slez.Plachuschiy_angel.JPG/960px-Minsk.Ostrov_Slez.Plachuschiy_angel.JPG",
        "https://upload.wikimedia.org/wikipedia/commons/thumb/d/d5/%D0%9C%D0%BE%D1%81%D1%82_%D0%BD%D0%B0_%D0%9E%D1%81%D1%82%D1%80%D0%BE%D0%B2_%D1%81%D0%BB%D1%91%D0%B7.jpg/960px-%D0%9C%D0%BE%D1%81%D1%82_%D0%BD%D0%B0_%D0%9E%D1%81%D1%82%D1%80%D0%BE%D0%B2_%D1%81%D0%BB%D1%91%D0%B7.jpg"
      ]
    },
    {
      "название": "Парк Горького",
      "описание": "Центральный парк культуры с аттракционами, колесом обозрения и прогулочными аллеями вдоль Свислочи.",
      "lat": 53.8975, "lng": 27.5370, "тип": "🎡", "приоритет": 1,
      "фото": [
        "https://upload.wikimedia.org/wikipedia/commons/thumb/e/e1/Gorki_park%2C_Minsk14.JPG/960px-Gorki_park%2C_Minsk14.JPG"
      ]
    },
    {
      "название": "Национальная библиотека",
      "описание": "Здание-ромбокубооктаэдр (2006). На крыше — смотровая площадка с панорамой города.",
      "lat": 53.9265, "lng": 27.6496, "тип": "📚", "приоритет": 3,
      "фото": [
        "https://upload.wikimedia.org/wikipedia/commons/thumb/a/ad/5_50_64_2f_-_Belarus_National_Library%2C_Minsk_2009_%283901618837%29.jpg/960px-5_50_64_2f_-_Belarus_National_Library%2C_Minsk_2009_%283901618837%29.jpg",
        "https://upload.wikimedia.org/wikipedia/ru/thumb/d/d3/Park_of_National_Library_of_Belarus.JPG/960px-Park_of_National_Library_of_Belarus.JPG"
      ]
    },
    {
      "название": "Красный костёл",
      "описание": "Костёл Святых Симеона и Елены (1910) из красного кирпича — один из символов Минска.",
      "lat": 53.9027, "lng": 27.5617, "тип": "⛪", "приоритет": 3,
      "фото": [
        "https://upload.wikimedia.org/wikipedia/commons/thumb/3/39/%D0%9A%D0%BE%D1%81%D1%82%D0%B5%D0%BB_%D0%A1%D0%B8%D0%BC%D0%BE%D0%BD%D0%B0_%D0%B8_%D0%90%D0%BB%D0%B5%D0%BD%D1%8B_3.jpg/960px-%D0%9A%D0%BE%D1%81%D1%82%D0%B5%D0%BB_%D0%A1%D0%B8%D0%BC%D0%BE%D0%BD%D0%B0_%D0%B8_%D0%90%D0%BB%D0%B5%D0%BD%D1%8B_3.jpg"
      ]
    }
  ],
  "интересные_места": [
    {
      "название": "Amo Restaurant & Bar",
      "категория": "еда",
      "описание": "#1 ресторан Беларуси по версии WHERETOEAT 2025. Средиземноморская кухня от Александра Данчика. Дорого, но событийно — драники с красной икрой за 160 BYR.",
      "lat": 53.9024, "lng": 27.5598, "адрес": "ул. Карла Маркса, 8", "тип": "🍽", "тренд": true
    },
    {
      "название": "SeaFoodBar Minsk",
      "категория": "еда",
      "описание": "#2 в WHERETOEAT 2025. Открытая кухня, витрина с живой рыбой, шеф Роман Липкин. Самый трендовый рыбный бар города.",
      "lat": 53.9051, "lng": 27.5526, "адрес": "ул. Революционная, 17", "тип": "🦞", "тренд": true
    },
    {
      "название": "Cultura",
      "категория": "еда",
      "описание": "Авторская минималистичная кухня с панорамным видом на Минск-Арену. В топах CityDog и Onliner, очень инстаграмная подача.",
      "lat": 53.9303, "lng": 27.5081, "адрес": "пр. Победителей, 100", "тип": "🍽", "тренд": true
    },
    {
      "название": "Bergamo",
      "категория": "еда",
      "описание": "Классический итальянский ресторан Данчика — #3 в WHERETOEAT 2025. Стабильно один из самых популярных у местных.",
      "lat": 53.9281, "lng": 27.5847, "адрес": "ул. Кульман, 37", "тип": "🍝", "тренд": true
    },
    {
      "название": "Bloom Eatery",
      "категория": "еда",
      "описание": "Светлая концепция от того же Данчика. Завтраки, лёгкая кухня, очень фотогеничный интерьер. Рядом с Минск-Ареной.",
      "lat": 53.9335, "lng": 27.5028, "адрес": "пр. Победителей, 110", "тип": "🌸", "тренд": true
    },
    {
      "название": "Flow Izakaya Bar",
      "категория": "еда",
      "описание": "Японский izakaya на креативной Октябрьской улице — арт-квартал с граффити Vulica Brasil.",
      "lat": 53.8989, "lng": 27.5703, "адрес": "ул. Октябрьская, 19А", "тип": "🍣", "тренд": true
    },
    {
      "название": "Wood & Fire",
      "категория": "еда",
      "описание": "Стейк-хаус на открытом огне рядом с Нацбиблиотекой. Мраморная говядина, лосось, осётр.",
      "lat": 53.9255, "lng": 27.6491, "адрес": "ул. Франциска Скорины, 1", "тип": "🥩",
      "фото": ["https://woodfire.by/wp-content/uploads/2021/09/novoe-myaso-ognevoe-derevyannoe-3-2.png"]
    },
    {
      "название": "Васильки (в Galleria Minsk)",
      "категория": "еда",
      "описание": "Самая известная сеть белорусской кухни — драники, мачанка, налистники. Ходят и местные, и туристы.",
      "lat": 53.9085, "lng": 27.5479, "адрес": "пр. Победителей, 9 (Galleria Minsk)", "тип": "🥔"
    },
    {
      "название": "Mak.by",
      "категория": "еда",
      "описание": "Белорусский фастфуд после ухода McDonald's в 2022. Точка на Немиге, 200м от метро. Меню почти то же — Биг-Тейсти, Маффины, McFlurry под другими названиями.",
      "lat": 53.9023, "lng": 27.5486, "адрес": "ул. Нямiга, 12Б", "тип": "🍔",
      "фото": ["https://upload.wikimedia.org/wikipedia/commons/thumb/0/0a/McDonald%27s_restaurants_in_Minsk.jpg/960px-McDonald%27s_restaurants_in_Minsk.jpg"]
    },
    {
      "название": "Stories Coffee",
      "категория": "еда",
      "описание": "Самая инстаграмная кофейня Минска: пышные круассаны, гигантские панини, светлый интерьер.",
      "lat": 53.9067, "lng": 27.5552, "адрес": "ул. Интернациональная, 14", "тип": "☕", "тренд": true
    },
    {
      "название": "Surf Coffee × Underground",
      "категория": "еда",
      "описание": "Минский филиал московской хипстерской сети — фирменный сёрф-стиль, спешелти-кофе.",
      "lat": 53.9027, "lng": 27.5527, "адрес": "ул. Кирова, 19", "тип": "🏄"
    },
    {
      "название": "Зыбицкая улица (бар-стрит)",
      "категория": "тусовка",
      "описание": "Главная барная улица Минска ('Зыба'), 30+ заведений на 500 м: El Pushka, Bardak, Hooch, Berlin Двор, Mad Rabbit, Spirit Bar.",
      "lat": 53.9062, "lng": 27.5582, "адрес": "ул. Зыбицкая", "тип": "🍸", "тренд": true,
      "фото": [
        "https://upload.wikimedia.org/wikipedia/commons/thumb/5/59/Ulitsa_Zybitskaya_Minsk.JPG/960px-Ulitsa_Zybitskaya_Minsk.JPG",
        "https://upload.wikimedia.org/wikipedia/commons/thumb/b/bd/2019_07_17_16_39_IMG_4772.jpg/960px-2019_07_17_16_39_IMG_4772.jpg"
      ]
    },
    {
      "название": "Чапскi бар",
      "категория": "тусовка",
      "описание": "Конкретная точка на Зыбицкой 6 — крафтовый бар с 25+ сортов бутылочного и 6-7 разливного. Душевная атмосфера во дворе.",
      "lat": 53.9059, "lng": 27.5577, "адрес": "ул. Зыбицкая, 6 (дворик)", "тип": "🍺"
    },
    {
      "название": "Bar Gin & It",
      "категория": "тусовка",
      "описание": "Лучший бар Беларуси по WHERETOEAT 2025 ('Бар года'). Hi-end миксология, must для тех кто любит коктейли.",
      "lat": 53.9069, "lng": 27.5565, "адрес": "р-н Зыбицкая / Верхний город", "тип": "🥃", "тренд": true
    },
    {
      "название": "Bardot Panorama Lounge",
      "категория": "тусовка",
      "описание": "Панорамный лаунж на верхнем этаже DoubleTree by Hilton. Лучший вид на вечерний Минск + азиатская кухня + коктейли.",
      "lat": 53.9085, "lng": 27.5483, "адрес": "DoubleTree by Hilton, пр. Победителей, 9", "тип": "🌃"
    },
    {
      "название": "Голос Столицы (караоке)",
      "категория": "тусовка",
      "описание": "Топовое караоке Минска, обновлённый каталог 2025 со свежими хитами. Финал вечера для пары.",
      "lat": 53.9072, "lng": 27.5536, "адрес": "ул. Янки Купалы, 25", "тип": "🎤"
    },
    {
      "название": "Октябрьская улица (арт-квартал)",
      "категория": "тусовка",
      "описание": "Бывшая промзона → инстаграм-эпицентр Минска: 11+ муралов Vulica Brasil, креативные пространства, бары Hooligan, Bessonniza, фотостудия Znяta.",
      "lat": 53.8985, "lng": 27.5694, "адрес": "ул. Октябрьская", "тип": "🎨", "тренд": true,
      "фото": [
        "https://upload.wikimedia.org/wikipedia/commons/thumb/5/5f/Oktyabrskaya_street_Minsk_6a.jpg/960px-Oktyabrskaya_street_Minsk_6a.jpg",
        "https://upload.wikimedia.org/wikipedia/commons/thumb/4/4a/Kastry%C4%8Dnickaja_street_%28Minsk%29_p01.jpg/960px-Kastry%C4%8Dnickaja_street_%28Minsk%29_p01.jpg"
      ]
    },
    {
      "название": "Galleria Minsk",
      "категория": "шопинг",
      "описание": "Современный ТРЦ в центре, 7 этажей. На 6-м — терраса с видом на Музей ВОВ. Mango, Stradivarius, Lime, фудкорт с панорамой.",
      "lat": 53.9080, "lng": 27.5485, "адрес": "пр. Победителей, 9", "тип": "🛍",
      "фото": [
        "https://upload.wikimedia.org/wikipedia/commons/thumb/3/37/20190526_151556_Galleria_Minsk%2C_Belarus.jpg/960px-20190526_151556_Galleria_Minsk%2C_Belarus.jpg",
        "https://upload.wikimedia.org/wikipedia/commons/thumb/f/fe/20190526_151636_Galleria_Minsk_May_2019.jpg/960px-20190526_151636_Galleria_Minsk_May_2019.jpg"
      ]
    },
    {
      "название": "Dana Mall",
      "категория": "шопинг",
      "описание": "Крупнейший ТРЦ страны (96 000 м²), вся группа Inditex (Zara, Pull&Bear, Bershka, Massimo Dutti, OYSHO, Zara Home), кинотеатр на 7 залов. Рядом — Dana Boulevard.",
      "lat": 53.9354, "lng": 27.6440, "адрес": "ул. Петра Мстиславца, 11", "тип": "🛒",
      "фото": [
        "https://upload.wikimedia.org/wikipedia/commons/thumb/1/1d/Dana_Mall_shopping_mall_%28Minsk%29.jpg/960px-Dana_Mall_shopping_mall_%28Minsk%29.jpg",
        "https://upload.wikimedia.org/wikipedia/commons/thumb/4/42/Dana_Mall_-_panoramio.jpg/960px-Dana_Mall_-_panoramio.jpg"
      ]
    },
    {
      "название": "Лошицкий парк и усадьба",
      "категория": "природа",
      "описание": "Самый ухоженный парк Минска (100+ га), усадебно-парковый комплекс XIX в., водохранилище р. Лошица, велоаренда, SUP. Тихая альтернатива Парку Горького.",
      "lat": 53.8478, "lng": 27.5847, "адрес": "ул. Чижевских", "тип": "🌳",
      "фото": [
        "https://upload.wikimedia.org/wikipedia/commons/thumb/a/a2/Minsk%2C_Belarus_-_panoramio_%28423%29.jpg/960px-Minsk%2C_Belarus_-_panoramio_%28423%29.jpg",
        "https://upload.wikimedia.org/wikipedia/commons/thumb/1/16/%D0%9B%D0%BE%D1%88%D0%B8%D1%86%D0%B0.jpg/960px-%D0%9B%D0%BE%D1%88%D0%B8%D1%86%D0%B0.jpg"
      ]
    },
    {
      "название": "Парк Челюскинцев + Ботсад",
      "категория": "природа",
      "описание": "Старейший парк (станция метро 'Парк Челюскинцев'), рядом — Центральный ботсад НАН. Конец апреля — пик цветения магнолий и сакур.",
      "lat": 53.9242, "lng": 27.6080, "адрес": "пр. Независимости, 87", "тип": "🌸", "тренд": true,
      "фото": [
        "https://upload.wikimedia.org/wikipedia/commons/thumb/2/2b/ParkCh_1.JPG/960px-ParkCh_1.JPG",
        "https://upload.wikimedia.org/wikipedia/commons/thumb/3/35/Botanical_garden%2C_Minsk_in_september_09.jpg/960px-Botanical_garden%2C_Minsk_in_september_09.jpg"
      ]
    },
    {
      "название": "Минское море (Заславское вдхр.)",
      "категория": "природа",
      "описание": "Главное искусственное озеро региона, 17 км от центра. На конец апреля купаться рано, но прогулка по набережной — норм для пары на машине.",
      "lat": 53.9583, "lng": 27.3833, "адрес": "Заславское водохранилище, Пляж №1", "тип": "🌊",
      "фото": [
        "https://upload.wikimedia.org/wikipedia/commons/4/4f/Zaslavl_reservoir.jpg",
        "https://upload.wikimedia.org/wikipedia/commons/thumb/b/b7/%D0%9C%D0%B8%D0%BD%D1%81%D0%BA%D0%BE%D0%B5_%D0%BC%D0%BE%D1%80%D0%B5_%D0%BD%D0%B0_%D0%B7%D0%B0%D0%BA%D0%B0%D1%82%D0%B5.jpg/960px-%D0%9C%D0%B8%D0%BD%D1%81%D0%BA%D0%BE%D0%B5_%D0%BC%D0%BE%D1%80%D0%B5_%D0%BD%D0%B0_%D0%B7%D0%B0%D0%BA%D0%B0%D1%82%D0%B5.jpg"
      ]
    },
    {
      "название": "Мирский замок",
      "категория": "загород",
      "описание": "ЮНЕСКО, замок XVI века, 100 км / ~1.5 часа на машине. Можно совместить с Несвижем за один день. Без него поездка 'не считается'.",
      "lat": 53.4514, "lng": 26.4731, "адрес": "пгт Мир, Гродненская обл.", "тип": "🏰", "тренд": true,
      "фото": [
        "https://upload.wikimedia.org/wikipedia/commons/thumb/3/39/%D0%9C%D1%96%D1%80%D1%81%D0%BA%D1%96_%D0%B7%D0%B0%D0%BC%D0%B0%D0%BA_%D0%B7_%D0%B2%D1%8B%D1%88%D1%8B%D0%BD%D1%96._2022_%2805%29.jpg/960px-%D0%9C%D1%96%D1%80%D1%81%D0%BA%D1%96_%D0%B7%D0%B0%D0%BC%D0%B0%D0%BA_%D0%B7_%D0%B2%D1%8B%D1%88%D1%8B%D0%BD%D1%96._2022_%2805%29.jpg",
        "https://upload.wikimedia.org/wikipedia/commons/thumb/2/28/Belarus_Mir_Mir_Castle_Complex_8101_2085.jpg/960px-Belarus_Mir_Mir_Castle_Complex_8101_2085.jpg"
      ]
    },
    {
      "название": "Несвижский замок",
      "категория": "загород",
      "описание": "ЮНЕСКО, резиденция Радзивиллов, 120 км / ~2 часа от Минска. От Мира до Несвижа ещё 30 км — комбинировать в одну поездку.",
      "lat": 53.2222, "lng": 26.6906, "адрес": "г. Несвиж, Минская обл.", "тип": "🏰", "тренд": true,
      "фото": [
        "https://upload.wikimedia.org/wikipedia/commons/thumb/0/0c/Belarus_Nesvizh_Castle_7259_2050.jpg/960px-Belarus_Nesvizh_Castle_7259_2050.jpg",
        "https://upload.wikimedia.org/wikipedia/commons/thumb/f/ff/Nesvizh_castle_in_autumn.jpg/960px-Nesvizh_castle_in_autumn.jpg"
      ]
    },
    {
      "название": "Дудутки (этно-музей)",
      "категория": "загород",
      "описание": "40 км от Минска (~40 мин на машине). Ремёсла, мельница, конные прогулки, дегустация самогона и хлеба. Самый 'инстаграмный' выезд за город на полдня.",
      "lat": 53.5969, "lng": 27.6853, "адрес": "д. Птичь, Пуховичский р-н", "тип": "🌾",
      "фото": [
        "https://upload.wikimedia.org/wikipedia/commons/thumb/3/3e/Dudutki_Museum_%2816112952668%29.jpg/960px-Dudutki_Museum_%2816112952668%29.jpg",
        "https://upload.wikimedia.org/wikipedia/commons/thumb/3/37/Windmill_Dudutki_06.jpg/960px-Windmill_Dudutki_06.jpg"
      ]
    }
  ]
}
